[
  {
    "city": "",
    "admin": "",
    "country": "",
    "population_proper": "",
    "iso2": "",
    "capital": "",
    "lat": "",
    "lng": "",
    "population": ""
  },
  {
    "city": "Kuala Lumpur",
    "admin": "Federal Territories",
    "country": "Malaysia",
    "population_proper": "720202",
    "iso2": "MY",
    "capital": "admin",
    "lat": "5.411229",
    "lng": "100.335426",
    "population": "2500000"
  },
  {
    "city": "Iskandar Puteri",
    "admin": "Johor",
    "country": "Malaysia",
    "population_proper": "1448000",
    "iso2": "MY",
    "capital": "primary",
    "lat": "3.166667",
    "lng": "101.7",
    "population": "1448000"
  },
  {
    "city": "Johor Bahru",
    "admin": "Johor",
    "country": "Malaysia",
    "population_proper": "802489",
    "iso2": "MY",
    "capital": "admin",
    "lat": "1.4655",
    "lng": "103.7578",
    "population": "875000"
  },
  {
    "city": "Kulai",
    "admin": "Johor",
    "country": "Malaysia",
    "population_proper": "107591",
    "iso2": "MY",
    "capital": "",
    "lat": "5.399102",
    "lng": "100.363818",
    "population": "821652"
  },
  {
    "city": "Batu Pahat",
    "admin": "Johor",
    "country": "Malaysia",
    "population_proper": "503127",
    "iso2": "MY",
    "capital": "",
    "lat": "2.196",
    "lng": "102.2405",
    "population": "788706"
  },
  {
    "city": "Muar",
    "admin": "Johor",
    "country": "Malaysia",
    "population_proper": "639136",
    "iso2": "MY",
    "capital": "admin",
    "lat": "4.5841",
    "lng": "101.0829",
    "population": "673318"
  },
  {
    "city": "Kluang",
    "admin": "Johor",
    "country": "Malaysia",
    "population_proper": "504963",
    "iso2": "MY",
    "capital": "",
    "lat": "1.416667",
    "lng": "110.333333",
    "population": "570407"
  },
  {
    "city": "Sungai Petani",
    "admin": "Kedah",
    "country": "Malaysia",
    "population_proper": "457326",
    "iso2": "MY",
    "capital": "admin",
    "lat": "5.9749",
    "lng": "116.0724",
    "population": "527671"
  },
  {
    "city": "Alor Setar",
    "admin": "Kedah",
    "country": "Malaysia",
    "population_proper": "279316",
    "iso2": "MY",
    "capital": "",
    "lat": "6.116667",
    "lng": "102.216667",
    "population": "505583"
  },
  {
    "city": "Kulim",
    "admin": "Kedah",
    "country": "Malaysia",
    "population_proper": "481654",
    "iso2": "MY",
    "capital": "",
    "lat": "3.083333",
    "lng": "101.533333",
    "population": "481654"
  },
  {
    "city": "Kubang Pasu",
    "admin": "Kedah",
    "country": "Malaysia",
    "population_proper": "291289",
    "iso2": "MY",
    "capital": "",
    "lat": "5.8402",
    "lng": "118.1179",
    "population": "392288"
  },
  {
    "city": "Kota Bharu",
    "admin": "Kelantan",
    "country": "Malaysia",
    "population_proper": "300731",
    "iso2": "MY",
    "capital": "",
    "lat": "2.702",
    "lng": "101.9655",
    "population": "372917"
  },
  {
    "city": "Pasir Mas",
    "admin": "Kelantan",
    "country": "Malaysia",
    "population_proper": "274695",
    "iso2": "MY",
    "capital": "admin",
    "lat": "3.8077",
    "lng": "103.326",
    "population": "366229"
  },
  {
    "city": "Ketereh",
    "admin": "Kelantan",
    "country": "Malaysia",
    "population_proper": "228843",
    "iso2": "MY",
    "capital": "",
    "lat": "5.615259",
    "lng": "100.468041",
    "population": "358499"
  },
  {
    "city": "Melaka City",
    "admin": "Melaka",
    "country": "Malaysia",
    "population_proper": "285065",
    "iso2": "MY",
    "capital": "admin",
    "lat": "5.3302",
    "lng": "103.1408",
    "population": "350210"
  },
  {
    "city": "Alor Gajah",
    "admin": "Melaka",
    "country": "Malaysia",
    "population_proper": "217368",
    "iso2": "MY",
    "capital": "admin",
    "lat": "6.121045",
    "lng": "100.360137",
    "population": "336475"
  },
  {
    "city": "Seremban",
    "admin": "Negeri Sembilan",
    "country": "Malaysia",
    "population_proper": "289531",
    "iso2": "MY",
    "capital": "",
    "lat": "4.2498",
    "lng": "117.8871",
    "population": "306462"
  },
  {
    "city": "Kuantan",
    "admin": "Pahang",
    "country": "Malaysia",
    "population_proper": "217647",
    "iso2": "MY",
    "capital": "",
    "lat": "4.85",
    "lng": "100.733333",
    "population": "237095"
  },
  {
    "city": "Temerloh",
    "admin": "Pahang",
    "country": "Malaysia",
    "population_proper": "211703",
    "iso2": "MY",
    "capital": "",
    "lat": "4.4148",
    "lng": "114.0089",
    "population": "228212"
  },
  {
    "city": "Seberang Perai",
    "admin": "Penang",
    "country": "Malaysia",
    "population_proper": "198239",
    "iso2": "MY",
    "capital": "",
    "lat": "2.3",
    "lng": "111.816667",
    "population": "203832"
  },
  {
    "city": "George Town",
    "admin": "Penang",
    "country": "Malaysia",
    "population_proper": "156236",
    "iso2": "MY",
    "capital": "",
    "lat": "1.8548",
    "lng": "102.9325",
    "population": "199619"
  },
  {
    "city": "Ipoh",
    "admin": "Perak",
    "country": "Malaysia",
    "population_proper": "127897",
    "iso2": "MY",
    "capital": "",
    "lat": "2.0442",
    "lng": "102.5689",
    "population": "191346"
  },
  {
    "city": "Taiping",
    "admin": "Perak",
    "country": "Malaysia",
    "population_proper": "156700",
    "iso2": "MY",
    "capital": "",
    "lat": "2.0251",
    "lng": "103.3328",
    "population": "169828"
  },
  {
    "city": "Manjung",
    "admin": "Perak",
    "country": "Malaysia",
    "population_proper": "83670",
    "iso2": "MY",
    "capital": "",
    "lat": "3.166667",
    "lng": "113.033333",
    "population": "151617"
  },
  {
    "city": "Kangar",
    "admin": "Perlis",
    "country": "Malaysia",
    "population_proper": "60310",
    "iso2": "MY",
    "capital": "",
    "lat": "5.0268",
    "lng": "118.327",
    "population": "105622"
  },
  {
    "city": "Kota Kinabalu",
    "admin": "Sabah",
    "country": "Malaysia",
    "population_proper": "63353",
    "iso2": "MY",
    "capital": "",
    "lat": "4.0259",
    "lng": "101.0213",
    "population": "101659"
  },
  {
    "city": "Tawau",
    "admin": "Sabah",
    "country": "Malaysia",
    "population_proper": "44646",
    "iso2": "MY",
    "capital": "",
    "lat": "4.25",
    "lng": "103.416667",
    "population": "82425"
  },
  {
    "city": "Sandakan",
    "admin": "Sabah",
    "country": "Malaysia",
    "population_proper": "63869",
    "iso2": "MY",
    "capital": "admin",
    "lat": "6.4414",
    "lng": "100.198619",
    "population": "63869"
  },
  {
    "city": "Lahad Datu",
    "admin": "Sabah",
    "country": "Malaysia",
    "population_proper": "33521",
    "iso2": "MY",
    "capital": "",
    "lat": "3.7899",
    "lng": "101.857",
    "population": "40024"
  },
  {
    "city": "Kinabatangan",
    "admin": "Sabah",
    "country": "Malaysia",
    "population_proper": "15448",
    "iso2": "MY",
    "capital": "",
    "lat": "4.1842",
    "lng": "102.0468",
    "population": "15448"
  },
  {
    "city": "Penampang",
    "admin": "Sabah",
    "country": "Malaysia",
    "population_proper": "",
    "iso2": "MY",
    "capital": "admin",
    "lat": "3.033333",
    "lng": "101.45",
    "population": ""
  },
  {
    "city": "Keningau",
    "admin": "Sabah",
    "country": "Malaysia",
    "population_proper": "",
    "iso2": "MY",
    "capital": "admin",
    "lat": "2.7297",
    "lng": "101.9381",
    "population": ""
  },
  {
    "city": "Kajang",
    "admin": "Selangor",
    "country": "Malaysia",
    "population_proper": "",
    "iso2": "MY",
    "capital": "minor",
    "lat": "6.030211",
    "lng": "102.141257",
    "population": ""
  },
  {
    "city": "Klang",
    "admin": "Selangor",
    "country": "Malaysia",
    "population_proper": "",
    "iso2": "MY",
    "capital": "admin",
    "lat": "1.55",
    "lng": "110.333333",
    "population": ""
  },
  {
    "city": "Subang Jaya",
    "admin": "Selangor",
    "country": "Malaysia",
    "population_proper": "",
    "iso2": "MY",
    "capital": "minor",
    "lat": "5.957008",
    "lng": "102.24817",
    "population": ""
  },
  {
    "city": "Petaling Jaya",
    "admin": "Selangor",
    "country": "Malaysia",
    "population_proper": "",
    "iso2": "MY",
    "capital": "minor",
    "lat": "6.197755",
    "lng": "102.170976",
    "population": ""
  },
  {
    "city": "Selayang",
    "admin": "Selangor",
    "country": "Malaysia",
    "population_proper": "",
    "iso2": "MY",
    "capital": "admin",
    "lat": "5.276667",
    "lng": "115.241667",
    "population": ""
  },
  {
    "city": "Shah Alam",
    "admin": "Selangor",
    "country": "Malaysia",
    "population_proper": "",
    "iso2": "MY",
    "capital": "minor",
    "lat": "6.049337",
    "lng": "102.139873",
    "population": ""
  },
  {
    "city": "Ampang Jaya",
    "admin": "Selangor",
    "country": "Malaysia",
    "population_proper": "",
    "iso2": "MY",
    "capital": "minor",
    "lat": "6.133275",
    "lng": "102.238603",
    "population": ""
  },
  {
    "city": "Kuala Langat",
    "admin": "Selangor",
    "country": "Malaysia",
    "population_proper": "",
    "iso2": "MY",
    "capital": "minor",
    "lat": "5.871332",
    "lng": "102.231766",
    "population": ""
  },
  {
    "city": "Sepang",
    "admin": "Selangor",
    "country": "Malaysia",
    "population_proper": "",
    "iso2": "MY",
    "capital": "minor",
    "lat": "5.871332",
    "lng": "102.231766",
    "population": ""
  },
  {
    "city": "Kuala Selangor",
    "admin": "Selangor",
    "country": "Malaysia",
    "population_proper": "",
    "iso2": "MY",
    "capital": "minor",
    "lat": "5.871332",
    "lng": "102.231766",
    "population": ""
  },
  {
    "city": "Hulu Selangor",
    "admin": "Selangor",
    "country": "Malaysia",
    "population_proper": "",
    "iso2": "MY",
    "capital": "minor",
    "lat": "5.871332",
    "lng": "102.231766",
    "population": ""
  },
  {
    "city": "Kuching",
    "admin": "Sarawak",
    "country": "Malaysia",
    "population_proper": "",
    "iso2": "MY",
    "capital": "minor",
    "lat": "5.871332",
    "lng": "102.231766",
    "population": ""
  },
  {
    "city": "Padawan",
    "admin": "Sarawak",
    "country": "Malaysia",
    "population_proper": "",
    "iso2": "MY",
    "capital": "minor",
    "lat": "5.871332",
    "lng": "102.231766",
    "population": ""
  },
  {
    "city": "Miri",
    "admin": "Sarawak",
    "country": "Malaysia",
    "population_proper": "",
    "iso2": "MY",
    "capital": "minor",
    "lat": "5.871332",
    "lng": "102.231766",
    "population": ""
  },
  {
    "city": "Bintulu",
    "admin": "Sarawak",
    "country": "Malaysia",
    "population_proper": "",
    "iso2": "MY",
    "capital": "minor",
    "lat": "5.871332",
    "lng": "102.231766",
    "population": ""
  },
  {
    "city": "Sibu",
    "admin": "Sarawak",
    "country": "Malaysia",
    "population_proper": "",
    "iso2": "MY",
    "capital": "minor",
    "lat": "5.871332",
    "lng": "102.231766",
    "population": ""
  },
  {
    "city": "Samarahan",
    "admin": "Sarawak",
    "country": "Malaysia",
    "population_proper": "",
    "iso2": "MY",
    "capital": "minor",
    "lat": "5.871332",
    "lng": "102.231766",
    "population": ""
  },
  {
    "city": "Sri Aman",
    "admin": "Sarawak",
    "country": "Malaysia",
    "population_proper": "",
    "iso2": "MY",
    "capital": "minor",
    "lat": "5.871332",
    "lng": "102.231766",
    "population": ""
  },
  {
    "city": "Sarikei",
    "admin": "Sarawak",
    "country": "Malaysia",
    "population_proper": "",
    "iso2": "MY",
    "capital": "minor",
    "lat": "5.871332",
    "lng": "102.231766",
    "population": ""
  },
  {
    "city": "Bintagor",
    "admin": "Sarawak",
    "country": "Malaysia",
    "population_proper": "",
    "iso2": "MY",
    "capital": "minor",
    "lat": "5.871332",
    "lng": "102.231766",
    "population": ""
  },
  {
    "city": "Mukah",
    "admin": "Sarawak",
    "country": "Malaysia",
    "population_proper": "",
    "iso2": "MY",
    "capital": "minor",
    "lat": "5.871332",
    "lng": "102.231766",
    "population": ""
  },
  {
    "city": "Serian",
    "admin": "Sarawak",
    "country": "Malaysia",
    "population_proper": "",
    "iso2": "MY",
    "capital": "minor",
    "lat": "5.871332",
    "lng": "102.231766",
    "population": ""
  },
  {
    "city": "Kuala Terengganu",
    "admin": "Terengganu",
    "country": "Malaysia",
    "population_proper": "",
    "iso2": "MY",
    "capital": "minor",
    "lat": "5.871332",
    "lng": "102.231766",
    "population": ""
  },
  {
    "city": "Kemaman",
    "admin": "Terengganu",
    "country": "Malaysia",
    "population_proper": "",
    "iso2": "MY",
    "capital": "minor",
    "lat": "5.871332",
    "lng": "102.231766",
    "population": ""
  }
]
